     2.10           OBSERVATION DATA    M (MIXED)           RINEX VERSION / TYPE
ComNav                                                      PGM / RUN BY / DATE 
                                                            MARKER NAME         
                                                            OBSERVER / AGENCY   
                    ComNav              55.0                REC # / TYPE / VERS 
                                                            ANT # / TYPE        
        0.0000        0.0000        0.0000                  APPROX POSITION XYZ 
        0.0000        0.0000        0.0000                  ANTENNA: DELTA H/E/N
     1     1                                                WAVELENGTH FACT L1/2
     8    C1    L1    S1    D1    L2    S2    D2    P2      # / TYPES OF OBSERV 
     4.000                                                  INTERVAL
  2021    12     3     7    52    5.000000      GPS         TIME OF FIRST OBS   
                                                            END OF HEADER       
 21 12  3  7 52  5.0000000  0 20G32G26G04G03G16G31C01C02C03C04C05C06            
                                C07C09C10R14R15R05R04R16                        
  22043263.070   119460020.19948        44.000       -2813.141                  
                                                
  20264994.742   107839080.57447        42.000        1207.469                  
                                                
  24480584.766   132720378.14846        38.000        3450.145                  
                                                
  22791747.984   117129002.67649        48.000          27.066                  
                                                
  22848897.180   116463421.09845        37.000        3521.262                  
                                                
  20587600.625   109556744.24648        45.000        -851.449                  
                                                
  38310775.719   201255535.66447        43.000          -5.332                  
                                                
  38107219.047   201274511.18445        36.000         -28.023                  
                                                
  37560033.086   192877753.43446        40.000         -16.914                  
                                                
  38984846.828   201249066.50048        45.000          10.309                  
                                                
  39872166.164   209681675.07845        36.000         -49.203                  
                                                
  35616823.719   184304179.63347        42.000         185.715                  
                                                
  37318507.086   192143522.52347        41.000        1081.301                  
                                                
  36311693.172   192485371.92648        45.000         445.074                  
                                                
  38478101.352   200521071.25846        38.000        1101.578                  
                                                
  22782809.516   118110821.70345        37.000       -3299.641                  
                                                
  19714591.563   101491486.31348        44.000       -1296.680                  
                                                
  19491933.539   101625858.21147        42.000       -1638.305                  
                                                
  22496039.977   118291875.21544        33.000       -4362.063                  
                                                
  21065469.641   115654255.59445        36.000        2184.285                  
                                                
 21 12  3  7 52 10.0000000  0 20G32G26G04G03G16G31C01C02C03C04C05C06            
                                C07C09C10R14R15R05R04R16                        
  22045940.578   119474090.66047        42.000       -2815.145                  
                                                
  20263847.195   107833049.93847        43.000        1204.762                  
                                                
  24477302.328   132703129.16446        38.000        3449.168                  
                                                
  22791723.617   117128874.31649        48.000          23.914                  
                                                
  22845547.172   116445816.82445        37.000        3519.637                  
                                                
  20588411.500   109561005.44548        45.000        -853.051                  
                                                
  38310780.727   201255561.85547        43.000          -5.301                  
                                                
  38107246.211   201274650.94955        37.000         -29.094                  
                                                
  37560049.531   192877840.82856        40.000         -17.680                  
                                                
  38984836.836   201249014.56348        45.000          10.215                  
                                                
  39872212.742   209681917.70755        37.000         -48.762                  
                                                
  35616645.227   184303250.22347        42.000         185.770                  
                                                
  37317468.578   192138114.80946        40.000        1080.793                  
                                                
  36311265.727   192483146.05148        45.000         444.824                  
                                                
  38477043.859   200515564.12146        39.000        1101.832                  
                                                
  22785904.258   118127318.03955        35.000       -3299.297                  
                                                
  19715805.641   101497973.88748        44.000       -1298.672                  
                                                
  19493468.102   101634061.60247        42.000       -1642.805                  
                                                
  22500113.430   118313690.51245        36.000       -4363.258                  
                                                
  21063425.969   115643338.12155        37.000        2182.254                  
                                                
 21 12  3  7 52 15.0000000  0 20G32G26G04G03G16G31C01C02C03C04C05C06            
                                C07C09C10R14R15R05R04R16                        
  22048620.211   119488172.11748        44.000       -2817.063                  
                                                
  20262702.586   107827034.72747        43.000        1201.688                  
                                                
  24474020.555   132685883.43846        38.000        3449.020                  
                                                
  22791702.648   117128763.87949        48.000          20.566                  
                                                
  22842198.867   116428221.68445        36.000        3518.367                  
                                                
  20589224.008   109565275.22748        44.000        -854.539                  
                                                
  38310786.031   201255589.53947        43.000          -5.230                  
                                                
  38107273.594   201274792.09855        37.000         -27.602                  
                                                
  37560066.766   192877929.57856        40.000         -17.473                  
                                                
  38984827.125   201248964.07448        45.000          10.664                  
                                                
  39872259.609   209682161.83655        36.000         -48.855                  
                                                
  35616467.234   184302323.40247        42.000         185.418                  
                                                
  37316430.898   192132711.25847        41.000        1080.613                  
                                                
  36310838.625   192480921.98448        45.000         445.012                  
                                                
  38475987.109   200510060.67646        38.000        1100.773                  
                                                
  22788999.219   118143815.79755        35.000       -3299.777                  
                                                
  19717021.836   101504472.45348        44.000       -1300.250                  
                                                
  19495006.961   101642287.85247        42.000       -1647.180                  
                                                
  22504188.469   118335513.69545        36.000       -4364.668                  
                                                
  21061384.305   115632432.19555        37.000        2179.816                  
                                                
 21 12  3  7 52 20.0000000  0 20G32G26G04G03G16G31C01C02C03C04C05C06            
                                C07C09C10R14R15R05R04R16                        
  22051298.859   119502248.42248        44.000       -2819.309                  
                                                
  20261557.867   107821018.87948        44.000        1198.453                  
                                                
  24470736.266   132668624.85545        37.000        3448.133                  
                                                
  22791682.031   117128655.27049        48.000          16.910                  
                                                
  22838848.414   116410619.09445        35.000        3517.781                  
                                                
  20590035.086   109569537.39548        44.000        -856.367                  
                                                
  38310788.578   201255602.73047        43.000          -5.660                  
                                                
  38107297.898   201274918.88755        36.000         -28.395                  
                                                
  37560081.094   192878003.82856        40.000         -18.141                  
                                                
  38984814.664   201248899.09048        45.000          10.020                  
                                                
  39872303.031   209682391.59055        36.000         -49.426                  
                                                
  35616286.672   184301383.23447        42.000         184.660                  
                                                
  37315390.992   192127295.91847        41.000        1079.816                  
                                                
  36310408.820   192478683.79748        45.000         444.418                  
                                                
  38474927.945   200504544.83246        38.000        1099.746                  
                                                
  22792091.383   118160298.71954        34.000       -3298.629                  
                                                
  19718237.008   101510965.74248        44.000       -1302.863                  
                                                
  19496547.195   101650520.56347        42.000       -1652.027                  
                                                
  22508262.398   118357328.37945        36.000       -4365.539                  
                                                
  21059341.703   115621521.14145        36.000        2179.070                  
                                                
 21 12  3  7 52 25.0000000  0 20G32G26G04G03G16G31C01C02C03C04C05C06            
                                C07C09C10R14R15R05R04R16                        
  22053980.938   119516342.80548        44.000       -2821.043                  
                                                
  20260417.445   107815025.52748        44.000        1196.359                  
                                                
  24467453.977   132651376.63746        38.000        3448.254                  
                                                
  22791666.180   117128571.65249        48.000          13.930                  
                                                
  22835502.102   116393033.29355        37.000        3515.496                  
                                                
  20590849.117   109573815.21948        44.000        -857.305                  
                                                
  38310792.727   201255624.42247        43.000          -5.605                  
                                                
  38107323.891   201275054.18055        35.000         -28.426                  
                                                
  37560096.992   192878086.54756        40.000         -18.242                  
                                                
  38984803.805   201248842.59048        45.000          10.297                  
                                                
  39872349.102   209682629.82455        36.000         -48.570                  
                                                
  35616107.969   184300452.67647        42.000         184.723                  
                                                
  37314353.180   192121891.78547        41.000        1079.695                  
                                                
  36309980.688   192476454.48048        44.000         444.734                  
                                                
  38473870.820   200499039.63746        39.000        1099.984                  
                                                
  22795185.516   118176790.37554        33.000       -3299.758                  
                                                
  19719455.523   101517477.19948        44.000       -1304.320                  
                                                
  19498092.906   101658783.28947        42.000       -1655.727                  
                                                
  22512339.250   118379157.98846        38.000       -4367.645                  
                                                
  21057302.563   115610628.69545        36.000        2176.238                  
                                                
 21 12  3  7 52 30.0000000  0 20G32G26G04G03G16G31C01C02C03C04C05C06            
                                C07C09C10R14R15R05R04R16                        
  22056667.523   119530460.69548        44.000       -2822.895                  
                                                
  20259282.352   107809060.18848        44.000        1193.391                  
                                                
  24464174.672   132634144.26245        37.000        3448.164                  
                                                
  22791656.141   117128518.54349        48.000          10.270                  
                                                
  22832159.969   116375469.70355        37.000        3513.633                  
                                                
  20591667.164   109578114.17248        44.000        -858.824                  
                                                
  38310799.586   201255660.05547        43.000          -5.758                  
                                                
  38107352.539   201275203.41455        36.000         -27.977                  
                                                
  37560115.586   192878183.10256        40.000         -18.047                  
                                                
  38984795.641   201248800.02348        45.000           9.875                  
                                                
  39872397.977   209682882.07455        36.000         -50.203                  
                                                
  35615932.156   184299537.16047        42.000         184.199                  
                                                
  37313318.594   192116504.25447        42.000        1078.512                  
                                                
  36309555.297   192474239.43048        45.000         444.445                  
                                                
  38472816.805   200493550.50046        39.000        1098.828                  
                                                
  22798282.297   118193295.99645        37.000       -3298.887                  
                                                
  19720678.438   101524012.39848        44.000       -1306.750                  
                                                
  19499645.242   101667081.47347        43.000       -1660.086                  
                                                
  22516420.031   118401008.25046        38.000       -4369.164                  
                                                
  21055267.898   115599760.43845        35.000        2173.953                  
                                                
 21 12  3  7 52 35.0000000  0 20G32G26G04G03G16G31C01C02C03C04C05C06            
                                C07C09C10R14R15R05R04R16                        
  22059353.625   119544576.15648        44.000       -2824.820                  
                                                
  20258147.648   107803096.89148        44.000        1190.480                  
                                                
  24460893.445   132616901.79345        35.000        3447.730                  
                                                
  22791646.969   117128469.94949        48.000           7.004                  
                                                
  22828817.156   116357901.43056        38.000        3511.668                  
                                                
  20592484.297   109582408.25048        44.000        -860.184                  
                                                
  38310804.148   201255683.89148        44.000          -5.695                  
                                                
  38107378.953   201275340.85255        37.000         -28.355                  
                                                
  37560131.828   192878267.81656        39.000         -17.855                  
                                                
  38984785.195   201248745.62148        45.000          10.016                  
                                                
  39872444.391   209683122.63755        37.000         -48.820                  
                                                
  35615754.281   184298610.98047        42.000         183.902                  
                                                
  37312282.250   192111107.59847        41.000        1077.770                  
                                                
  36309127.719   192472012.98448        45.000         444.188                  
                                                
  38471760.891   200488051.71946        39.000        1098.590                  
                                                
  22801376.516   118209789.59046        38.000       -3299.410                  
                                                
  19721900.867   101530544.91448        45.000       -1308.395                  
                                                
  19501199.359   101675389.00447        43.000       -1664.367                  
                                                
  22520499.453   118422852.66445        36.000       -4369.988                  
                                                
  21053232.867   115588889.83645        36.000        2172.605                  
                                                
 21 12  3  7 52 40.0000000  0 20G32G26G04G03G16G31C01C02C03C04C05C06            
                                C07C09C10R14R15R05R04R16                        
  22062044.055   119558714.53948        44.000       -2826.609                  
                                                
  20257018.164   107797160.95347        43.000        1187.402                  
                                                
  24457615.211   132599674.60245        37.000        3447.039                  
                                                
  22791643.500   117128451.22349        48.000           3.859                  
                                                
  22825478.188   116340354.32856        38.000        3510.195                  
                                                
  20593305.328   109586722.87148        44.000        -861.992                  
                                                
  38310811.266   201255721.03147        43.000          -5.297                  
                                                
  38107408.617   201275491.69155        37.000         -28.570                  
                                                
  37560150.633   192878365.81656        39.000         -17.820                  
                                                
  38984777.305   201248704.52348        45.000          10.023                  
                                                
  39872493.047   209683376.41855        37.000         -49.090                  
                                                
  35615579.180   184297699.27747        42.000         184.184                  
                                                
  37311248.984   192105726.95747        41.000        1077.344                  
                                                
  36308702.758   192469800.19948        45.000         444.344                  
                                                
  38470707.945   200482568.39546        39.000        1098.965                  
                                                
  22804473.250   118226296.56345        37.000       -3298.805                  
                                                
  19723127.625   101537100.61748        44.000       -1310.270                  
                                                
  19502759.922   101683731.35947        42.000       -1668.824                  
                                                
  22524581.805   118444717.12144        33.000       -4372.160                  
                                                
  21051202.172   115578042.77344        34.000        2170.340                  
                                                
